City_ID,City,Lat,Lng,Max Temp,Humidity,Cloudiness,Wind Speed,Country,Date
0,iskateley,67.6803,53.1512,0.8300000000000409,100,100,2.28,RU,10800
1,tazovsky,67.4667,78.7,-11.139999999999986,81,45,4.23,RU,18000
2,laguna,38.421,-121.4238,17.99000000000001,70,0,3.09,US,-25200
3,puerto natales,-51.7236,-72.4875,6.860000000000014,72,81,5.36,CL,-10800
4,puerto ayora,-0.7393,-90.3518,24.75,100,36,3.27,EC,-21600
5,santa cruz,-17.8,-63.1667,21.700000000000045,83,75,3.6,BO,-14400
6,avarua,-21.2078,-159.775,25.03000000000003,78,75,7.2,CK,-36000
7,hilo,19.7297,-155.09,24.600000000000023,90,100,3.6,US,-36000
8,villa berthet,-27.2917,-60.4126,11.520000000000039,93,0,2.25,AR,-10800
9,tamanrasset,22.785,5.5228,22.950000000000045,18,0,5.14,DZ,3600
10,bredasdorp,-34.5322,20.0403,12.090000000000032,72,92,6.5,ZA,7200
11,invercargill,-46.4,168.35,8.340000000000032,95,88,1.34,NZ,43200
12,hammerfest,70.6634,23.6821,5.25,100,75,6.17,NO,7200
13,ushuaia,-54.8,-68.3,7.810000000000002,76,100,6.17,AR,-10800
14,nuriootpa,-34.4833,139.0,18.08000000000004,46,50,2.35,AU,34200
15,taroa,8.7058,171.2275,27.590000000000032,83,96,7.65,MH,43200
16,sisimiut,66.9395,-53.6735,-3.0499999999999545,82,100,5.36,GL,-7200
17,hawaiian paradise park,19.5933,-154.9731,22.80000000000001,89,100,3.6,US,-36000
18,west island,-12.1568,96.8225,29.99000000000001,74,75,6.17,CC,23400
19,mount pearl,47.5166,-52.7813,2.3000000000000114,69,20,1.03,CA,-9000
20,port-aux-francais,-49.35,70.2167,8.390000000000043,91,100,20.14,TF,18000
21,thompson,55.7435,-97.8558,11.090000000000032,50,20,6.17,CA,-18000
22,talnakh,69.4865,88.3972,-12.659999999999968,76,40,4.35,RU,25200
23,stanley,54.868,-1.6985,8.770000000000039,95,100,5.14,GB,3600
24,blackmans bay,-43.0167,147.3167,16.07000000000005,52,62,1.96,AU,36000
25,yellowknife,62.456,-114.3525,11.980000000000018,50,40,2.57,CA,-21600
26,enoch,37.7733,-113.0244,11.930000000000007,53,0,1.54,US,-21600
27,iqaluit,63.7506,-68.5145,-9.149999999999977,92,20,2.06,CA,-14400
28,waitangi,-43.9535,-176.5597,10.830000000000041,67,72,13.23,NZ,45900
29,adamstown,-25.066,-130.1015,22.33000000000004,63,100,7.92,PN,-28800
30,grytviken,-54.2811,-36.5092,-4.5,66,1,2.29,GS,-7200
31,mlowo,-9.0,32.9833,18.310000000000002,80,85,0.87,TZ,10800
32,albany,42.6001,-73.9662,14.960000000000036,74,52,0.89,US,-14400
33,mount gambier,-37.8333,140.7667,14.860000000000014,54,3,2.63,AU,34200
34,edinburgh of the seven seas,-37.0676,-12.3116,17.220000000000027,88,96,12.37,SH,0
35,bouna,9.2667,-3.0,24.03000000000003,86,81,2.21,CI,0
36,hundested,55.9667,11.8667,12.220000000000027,69,14,0.89,DK,7200
37,anadyr,64.75,177.4833,3.2800000000000296,75,0,3.0,RU,43200
38,tiksi,71.6872,128.8694,-8.92999999999995,78,94,6.8,RU,32400
39,manokwari,-0.8667,134.0833,28.52000000000004,78,78,4.71,ID,32400
40,st. john's,47.5649,-52.7093,2.7600000000000477,70,20,1.34,CA,-9000
41,georgetown,5.4112,100.3354,34.97000000000003,68,20,4.12,MY,28800
42,chatillon-sur-seine,47.8585,4.5738,9.360000000000014,96,43,2.01,FR,7200
43,lebu,-37.6167,-73.65,12.830000000000041,90,98,1.58,CL,-14400
44,praia da vitoria,38.7333,-27.0667,16.53000000000003,100,75,2.94,PT,0
45,kruisfontein,-34.0033,24.7314,13.080000000000041,81,100,5.33,ZA,7200
46,pacific grove,36.6177,-121.9166,13.160000000000025,86,75,2.06,US,-25200
47,wailua homesteads,22.0669,-159.378,23.439999999999998,84,75,3.6,US,-36000
48,olonkinbyen,70.9221,-8.7187,0.7700000000000387,94,87,8.5,SJ,7200
49,longyearbyen,78.2186,15.6401,-5.089999999999975,74,75,5.66,SJ,7200
50,port mathurin,-19.6833,63.4167,25.560000000000002,77,65,9.64,MU,14400
51,northam,51.0333,-4.2167,10.220000000000027,99,4,4.01,GB,3600
52,qaqortoq,60.7167,-46.0333,1.910000000000025,84,100,2.53,GL,-7200
53,carlos a. carrillo,18.3667,-95.75,27.660000000000025,58,83,0.63,MX,-21600
54,agat village,13.3886,144.6585,32.52000000000004,72,40,3.09,GU,36000
55,kununurra,-15.7667,128.7333,28.99000000000001,17,29,5.14,AU,28800
56,madalena,41.2162,-8.3345,11.370000000000005,76,3,2.08,PT,3600
57,uturoa,-16.7333,-151.4333,24.52000000000004,89,100,8.76,PF,-36000
58,codrington,-38.2667,141.9667,14.340000000000032,61,41,3.16,AU,36000
59,banket,-17.3833,30.4,18.480000000000018,55,6,2.0,ZW,7200
60,whitehorse,60.7161,-135.0538,11.430000000000007,43,75,2.57,CA,-25200
61,chita,52.0333,113.55,11.939999999999998,13,1,3.0,RU,32400
62,al kharijah,25.4514,30.5464,28.180000000000007,24,0,5.75,EG,10800
63,college,64.8569,-147.8028,15.180000000000007,52,40,2.06,US,-28800
64,badger,64.8,-147.5333,15.140000000000043,43,40,2.06,US,-28800
65,formosa,-26.1775,-58.1781,12.990000000000009,88,0,1.03,AR,-10800
66,salekhard,66.53,66.6019,-4.46999999999997,89,92,2.95,RU,18000
67,tralee,52.2704,-9.7026,8.25,95,14,1.43,IE,3600
68,gunsan,35.9786,126.7114,21.939999999999998,33,75,4.12,KR,32400
69,oranjemund,-28.55,16.4333,12.689999999999998,74,99,10.38,NA,7200
70,kenai,60.5544,-151.2583,12.050000000000011,56,0,3.09,US,-28800
71,coquimbo,-29.9533,-71.3436,12.850000000000023,100,100,1.03,CL,-14400
72,ouadda,8.0777,22.4007,24.80000000000001,73,53,1.25,CF,3600
73,floro,61.5996,5.0328,9.04000000000002,93,75,3.09,NO,7200
74,kunszentmarton,46.8392,20.2888,12.220000000000027,96,100,4.56,HU,7200
75,inyonga,-6.7167,32.0667,19.470000000000027,83,75,1.73,TZ,10800
76,chonchi,-42.6128,-73.8092,12.840000000000032,99,100,0.66,CL,-14400
77,iquique,-20.2208,-70.1431,18.02000000000004,68,3,0.89,CL,-14400
78,namibe,-15.1961,12.1522,22.33000000000004,76,11,2.39,AO,3600
79,mersa matruh,31.3525,27.2453,19.210000000000036,74,15,5.11,EG,10800
80,port elizabeth,-33.918,25.5701,14.620000000000005,85,20,5.14,ZA,7200
81,bonthe,7.5264,-12.505,26.430000000000007,84,78,1.67,SL,0
82,lievin,50.4198,2.7807,12.010000000000048,95,100,4.7,FR,7200
83,el abiodh sidi cheikh,32.893,0.5484,19.760000000000048,42,53,3.47,DZ,3600
84,caetite,-14.0694,-42.475,19.410000000000025,68,85,1.24,BR,-10800
85,acapulco de juarez,16.8634,-99.8901,27.900000000000034,74,40,1.54,MX,-21600
86,xichang,27.8964,102.2634,18.260000000000048,48,100,1.38,CN,28800
87,hamilton,39.1834,-84.5333,20.54000000000002,88,0,0.0,US,-14400
88,deir ez-zor,35.3359,40.1408,29.710000000000036,19,99,7.81,SY,10800
89,howrah,22.5892,88.3103,33.0,70,40,5.14,IN,19800
90,boyalik,41.2634,28.6314,12.650000000000034,74,100,8.18,TR,10800
91,maragogi,-9.0122,-35.2225,24.189999999999998,83,38,1.89,BR,-10800
92,fruita,39.1589,-108.729,16.640000000000043,54,0,5.14,US,-21600
93,tolanaro,-25.0319,46.9987,25.04000000000002,83,40,8.23,MG,10800
94,santa ana,33.7456,-117.8678,16.890000000000043,81,20,1.54,US,-25200
95,port augusta,-32.5,137.7667,19.840000000000032,46,6,5.68,AU,34200
96,sinabang,2.4803,96.3801,30.75,69,19,4.58,ID,25200
97,shihezi,44.3,86.0333,31.55000000000001,9,82,2.24,CN,28800
98,klyuchi,52.2667,79.1667,16.74000000000001,28,86,3.07,RU,25200
99,dudinka,69.4058,86.1778,-12.42999999999995,90,78,6.87,RU,25200
100,sitka,57.0531,-135.33,11.939999999999998,54,100,8.23,US,-28800
101,soure,-0.7167,-48.5233,25.439999999999998,84,58,2.37,BR,-10800
102,tindouf,27.6711,-8.1474,23.25,35,0,4.12,DZ,3600
103,isla mujeres,21.2311,-86.731,28.03000000000003,87,77,5.89,MX,-18000
104,lerwick,60.1545,-1.1494,7.0,83,0,2.57,GB,3600
105,benguela,-12.5763,13.4055,24.54000000000002,81,18,1.85,AO,3600
106,fale old settlement,-9.3852,-171.2468,28.83000000000004,76,24,5.88,TK,46800
107,san antonio de pale,-1.4014,5.6325,28.04000000000002,80,95,4.58,GQ,3600
108,ust-nera,64.5667,143.2,3.57000000000005,80,100,1.62,RU,36000
109,kourou,5.1552,-52.6478,24.03000000000003,92,91,3.35,GF,-10800
110,port lincoln,-34.7333,135.8667,15.980000000000018,58,11,4.64,AU,34200
111,ta`u,-14.2336,-169.5144,27.480000000000018,77,27,4.65,AS,-39600
112,formosa do rio preto,-11.0483,-45.1931,20.600000000000023,91,99,1.11,BR,-10800
113,la passe,45.5549,-0.8967,11.100000000000023,86,90,2.53,FR,7200
114,bilibino,68.0546,166.4372,1.1100000000000136,99,100,1.31,RU,43200
115,tres arroyos,-38.3739,-60.2798,8.950000000000045,55,79,5.47,AR,-10800
116,ribeira grande,38.5167,-28.7,15.990000000000009,86,66,4.02,PT,0
117,yatou,37.15,122.3833,20.510000000000048,40,40,6.36,CN,28800
118,cabo san lucas,22.8909,-109.9124,23.120000000000005,67,35,7.28,MX,-25200
119,la ronge,55.1001,-105.2842,11.140000000000043,50,0,3.6,CA,-21600
120,enewetak,11.3474,162.3373,27.720000000000027,83,93,7.08,MH,43200
121,ilulissat,69.2167,-51.1,-2.9899999999999523,93,75,5.14,GL,-7200
122,caribou,46.8606,-68.012,11.129999999999995,59,0,0.89,US,-14400
123,palmer,42.1584,-72.3287,16.03000000000003,77,0,0.0,US,-14400
124,nezhinka,51.7676,55.3694,12.090000000000032,87,100,7.15,RU,18000
125,kurumkan,54.3,110.3,11.970000000000027,28,60,1.86,RU,28800
126,katsuren-haebaru,26.3369,127.8719,26.010000000000048,59,40,5.14,JP,32400
127,asau,46.4333,26.4,9.600000000000023,62,88,2.33,RO,10800
128,lakatoro,-16.0999,167.4164,27.200000000000045,69,72,8.62,VU,39600
129,tataouine,32.9297,10.4518,22.610000000000014,36,25,3.34,TN,3600
130,gisborne,-38.6533,178.0042,12.350000000000023,62,56,4.88,NZ,43200
131,papatowai,-46.5619,169.4708,10.060000000000002,91,91,3.74,NZ,43200
132,homer,59.6425,-151.5483,8.939999999999998,61,0,2.57,US,-28800
133,margaret river,-33.95,115.0667,17.590000000000032,57,93,6.33,AU,28800
134,santana,-0.0583,-51.1817,25.100000000000023,100,0,1.03,BR,-10800
135,soio,-6.1349,12.3689,26.260000000000048,90,73,2.78,AO,3600
136,holualoa,19.6228,-155.9522,23.910000000000025,86,20,3.6,US,-36000
137,wabag,-5.4781,143.7021,18.210000000000036,86,84,1.62,PG,36000
138,srimushnam,11.4,79.4167,35.620000000000005,41,100,3.8,IN,19800
139,pisco,-13.7,-76.2167,20.03000000000003,77,100,2.57,PE,-18000
140,pacasmayo,-7.4006,-79.5714,22.629999999999995,85,72,5.29,PE,-18000
141,mugia,43.1041,-9.2179,12.730000000000018,79,53,7.15,ES,7200
142,lihue,21.9789,-159.3672,23.77000000000004,82,75,3.6,US,-36000
143,alice springs,-23.7,133.8833,21.75,15,0,6.69,AU,34200
144,north bend,43.4065,-124.2243,12.310000000000002,82,100,2.57,US,-25200
145,guerrero negro,27.9769,-114.0611,14.57000000000005,82,83,8.98,MX,-25200
146,kishtwar,33.3167,75.7667,24.950000000000045,19,64,2.06,IN,19800
147,nuuk,64.1835,-51.7216,0.34000000000003183,86,40,8.05,GL,-7200
148,guangyuan,32.442,105.823,28.310000000000002,26,44,1.79,CN,28800
149,sabang,5.8933,95.3214,29.100000000000023,71,98,1.59,ID,25200
150,freetown,8.484,-13.2299,26.470000000000027,85,60,2.71,SL,0
151,aripuana,-9.1667,-60.6333,21.710000000000036,97,98,0.62,BR,-14400
152,kabinda,-6.1333,24.4833,22.07000000000005,69,42,2.01,CD,7200
153,dejen,10.1667,38.1333,18.670000000000016,51,12,1.39,ET,10800
154,zvishavane,-20.3267,30.0665,18.610000000000014,49,0,1.2,ZW,7200
155,pitimbu,-7.4706,-34.8086,25.33000000000004,79,35,2.84,BR,-10800
156,galliano,29.4422,-90.2992,26.0,91,25,4.5,US,-18000
157,bridgewater,44.3835,-64.5155,6.170000000000016,97,65,2.57,CA,-10800
158,kogalym,62.2654,74.4791,-1.089999999999975,46,79,3.72,RU,18000
159,draganesti,45.7833,27.4667,12.330000000000041,52,74,1.86,RO,10800
160,tinajo,29.0788,-13.7081,17.49000000000001,82,20,6.69,ES,3600
161,samokov,42.3333,23.55,5.3799999999999955,98,100,0.87,BG,10800
162,callao,-12.0667,-77.15,22.160000000000025,73,100,4.63,PE,-18000
163,kill devil hills,36.0307,-75.676,19.430000000000007,76,0,5.14,US,-14400
164,isangel,-19.55,169.2667,26.060000000000002,89,100,0.0,VU,39600
165,bethel,41.3712,-73.414,15.400000000000034,76,0,1.54,US,-14400
166,saipan,15.1355,145.701,33.39000000000004,100,40,3.58,MP,36000
167,isafjordur,66.0755,-23.124,4.980000000000018,97,100,2.5,IS,0
168,loango,-4.6719,11.8312,26.810000000000002,94,75,1.54,CG,3600
169,keflavik,64.0049,-22.5624,6.9500000000000455,100,100,2.57,IS,0
170,utrik,11.2278,169.8474,27.410000000000025,83,90,7.15,MH,43200
171,afaahiti,-17.75,-149.2833,25.590000000000032,95,100,8.17,PF,-36000
172,sharjah,25.3573,55.4033,34.160000000000025,20,0,2.57,AE,14400
173,north elba,44.2434,-73.9543,10.550000000000011,81,89,2.52,US,-14400
174,afua,-0.1567,-50.3867,23.58000000000004,95,92,0.31,BR,-10800
175,nuku'alofa,-21.1333,-175.2,26.189999999999998,83,20,1.54,TO,46800
176,okahao,-17.885,15.0667,19.090000000000032,36,68,1.07,NA,7200
177,vorgashor,67.5833,63.95,-4.1200000000000045,83,15,3.83,RU,10800
178,copiapo,-27.3667,-70.3333,11.830000000000041,63,1,0.6,CL,-14400
179,mirandopolis,-21.1336,-51.1017,13.220000000000027,82,73,2.37,BR,-10800
180,guapiles,10.2159,-83.7866,27.129999999999995,94,14,1.18,CR,-21600
181,ixtapa,20.7,-105.2,24.57000000000005,78,0,0.0,MX,-21600
182,weno,7.4515,151.8468,30.970000000000027,74,75,2.57,FM,36000
183,santa ines,-3.6667,-45.38,22.700000000000045,98,96,1.12,BR,-10800
184,ahfir,34.9537,-2.1003,16.340000000000032,89,100,0.9,MA,3600
185,laojunmiao,39.8333,97.7333,18.25,9,1,4.44,CN,28800
186,shingu,33.7333,135.9833,20.230000000000018,52,49,1.72,JP,32400
187,jinxiang,27.4327,120.6062,19.960000000000036,65,93,2.27,CN,28800
188,ancud,-41.8697,-73.8203,12.230000000000018,97,100,1.91,CL,-14400
189,colombo,6.9319,79.8478,30.970000000000027,80,69,6.34,LK,19800
190,port alfred,-33.5906,26.891,14.54000000000002,98,100,2.24,ZA,7200
191,itamaraca,-7.7478,-34.8256,28.03000000000003,80,22,2.28,BR,-10800
192,altai,46.3722,96.2583,13.629999999999995,24,32,6.58,MN,25200
193,kone,-21.0595,164.8658,24.170000000000016,68,100,2.88,NC,39600
194,lieksa,63.3167,30.0167,8.79000000000002,61,11,2.78,FI,10800
195,kapuskasing,49.4169,-82.4331,13.050000000000011,87,0,4.12,CA,-14400
196,san rafael del norte,13.2125,-86.1106,19.860000000000014,88,100,1.19,NI,-21600
197,crane,31.3974,-102.3501,22.810000000000002,13,1,0.98,US,-18000
198,boca suno,-0.7167,-77.1333,21.189999999999998,99,78,0.89,EC,-18000
199,daru,-9.0763,143.2092,26.58000000000004,90,100,5.84,PG,36000
200,nadym,65.5333,72.5167,-6.060000000000002,70,52,2.47,RU,18000
201,saint-philippe,-21.3585,55.7679,26.77000000000004,75,96,5.09,RE,14400
202,carnarvon,-24.8667,113.6333,24.840000000000032,56,0,5.3,AU,28800
203,lagos,6.5833,3.75,27.180000000000007,89,29,0.12,NG,3600
204,luderitz,-26.6481,15.1594,14.210000000000036,75,100,11.94,NA,7200
205,aykhal,66.0,111.5,1.080000000000041,100,100,7.65,RU,32400
206,jamestown,42.097,-79.2353,14.800000000000011,72,0,1.54,US,-14400
207,tabou,4.423,-7.3528,26.99000000000001,85,97,2.19,CI,0
208,eyl,7.9803,49.8164,30.720000000000027,62,98,7.08,SO,10800
209,monrovia,6.3005,-10.7969,24.870000000000005,84,100,0.86,LR,0
210,kavaratti,10.5669,72.642,29.54000000000002,65,99,2.06,IN,19800
211,nar'yan-mar,67.6713,53.087,0.910000000000025,100,100,2.22,RU,10800
212,tura,25.5198,90.2201,36.34000000000003,24,76,1.61,IN,19800
213,kodiak,57.79,-152.4072,5.730000000000018,87,100,6.17,US,-28800
214,petropavlovsk-kamchatsky,53.0452,158.6483,5.330000000000041,70,75,2.0,RU,43200
215,wang saphung,17.301,101.7685,31.010000000000048,66,75,1.03,TH,25200
216,pandan,14.0453,124.1694,28.80000000000001,67,33,4.17,PH,28800
217,rada tilly,-45.9333,-67.5333,16.27000000000004,44,0,8.23,AR,-10800
218,new norfolk,-42.7826,147.0587,16.720000000000027,54,54,1.79,AU,36000
219,vaggeryd,57.4981,14.1484,11.760000000000048,46,11,2.21,SE,7200
220,vila velha,-20.3297,-40.2925,22.970000000000027,96,75,2.06,BR,-10800
221,osinovo,55.8809,48.881,17.05000000000001,57,86,4.66,RU,10800
222,barabai,-2.5833,115.3833,35.700000000000045,46,76,0.84,ID,28800
223,usinsk,65.9939,57.5281,0.4800000000000182,100,100,6.14,RU,10800
224,bahia honda,22.9036,-83.1592,24.860000000000014,85,45,3.59,CU,-14400
225,faya-largeau,17.9257,19.1043,29.090000000000032,21,87,9.91,TD,3600
226,coyhaique,-45.5752,-72.0662,9.970000000000027,87,100,3.09,CL,-14400
227,noosa heads,-26.3833,153.15,22.840000000000032,61,3,7.23,AU,36000
228,noumea,-22.2763,166.4572,24.439999999999998,99,96,6.65,NC,39600
229,akureyri,65.6835,-18.0878,9.960000000000036,66,75,2.57,IS,0
230,kodinsk,58.6881,99.1844,13.230000000000018,29,100,1.92,RU,25200
231,mount isa,-20.7333,139.5,28.870000000000005,24,0,4.63,AU,36000
232,kalaoa,19.7286,-155.9817,23.110000000000014,85,20,3.6,US,-36000
233,punta arenas,-53.15,-70.9167,7.060000000000002,65,20,8.23,CL,-10800
234,buturlinovka,50.8239,40.6092,11.840000000000032,72,90,3.75,RU,10800
235,berdigestyakh,62.0989,126.6992,6.060000000000002,37,100,2.43,RU,32400
236,puerto deseado,-47.7503,-65.8938,12.420000000000016,52,100,6.83,AR,-10800
237,chyhyryn,49.0838,32.6555,12.720000000000027,65,1,3.05,UA,10800
238,sitangkai,4.6628,119.3928,29.210000000000036,69,32,1.13,PH,28800
239,broken hill,-31.95,141.4333,20.170000000000016,24,62,2.75,AU,34200
240,san pedro buenavista,16.0833,-93.1167,21.670000000000016,92,84,0.94,MX,-21600
241,amga,60.8953,131.9608,6.1200000000000045,41,100,2.57,RU,32400
242,nova vicosa,-17.8919,-39.3719,24.010000000000048,84,96,1.9,BR,-10800
243,ardakan,32.31,54.0175,28.970000000000027,16,66,3.9,IR,12600
244,hadibu,12.65,54.0333,29.730000000000018,64,100,0.89,YE,10800
245,carbonear,47.7332,-53.2148,2.640000000000043,75,39,2.22,CA,-9000
246,nova sintra,14.8667,-24.7167,19.480000000000018,84,22,8.58,CV,-3600
247,la'ie,21.6477,-157.9253,24.5,74,38,2.24,US,-36000
248,tshela,-4.9833,12.9333,23.870000000000005,98,100,0.29,CD,3600
249,gubkinskiy,64.434,76.5026,-6.639999999999986,72,96,4.08,RU,18000
250,axim,4.8699,-2.2405,26.910000000000025,83,100,1.69,GH,0
251,jincheng,35.5022,112.8328,26.860000000000014,17,13,6.59,CN,28800
252,carahue,-38.7,-73.1667,13.29000000000002,85,100,0.91,CL,-14400
253,verkhnedneprovskiy,54.9813,33.3457,14.03000000000003,59,33,3.24,RU,10800
254,lindi,-10.0,39.7167,25.450000000000045,85,28,2.4,TZ,10800
255,arvayheer,46.2639,102.775,15.200000000000045,20,96,2.88,MN,28800
256,newman,37.3138,-121.0208,17.360000000000014,78,1,0.89,US,-25200
257,woolgoolga,-30.1106,153.2007,21.689999999999998,66,15,3.71,AU,36000
258,svetlyy,54.675,20.1347,12.03000000000003,65,4,4.45,RU,7200
259,arkhipo-osipovka,44.37,38.52,13.580000000000041,56,13,6.87,RU,10800
260,harper,4.375,-7.7169,27.05000000000001,84,99,2.05,LR,0
261,sulak,43.2734,47.5146,14.590000000000032,57,99,0.38,RU,10800
262,selfoss,63.9331,-20.9971,9.470000000000027,98,100,6.55,IS,0
263,alto araguaia,-17.3147,-53.2153,17.480000000000018,93,40,2.5,BR,-14400
264,dryden,49.7833,-92.7503,12.160000000000025,87,75,1.54,CA,-18000
265,jishu,44.3167,126.8,20.590000000000032,33,100,6.74,CN,28800
266,"laikit, laikit ii (dimembe)",1.4792,124.9735,30.470000000000027,58,40,4.63,ID,28800
267,lagunas,-5.2269,-75.6753,21.950000000000045,99,46,0.57,PE,-18000
268,puerto armuelles,8.2833,-82.8667,26.220000000000027,87,56,1.75,PA,-18000
269,port saint john's,-31.6229,29.5448,20.220000000000027,74,100,5.58,ZA,7200
270,fisterra,42.9049,-9.2629,12.640000000000043,79,33,7.18,ES,7200
271,portland,45.5234,-122.6762,18.32000000000005,67,65,0.89,US,-25200
272,fatehabad,29.5167,75.45,41.32000000000005,6,3,3.81,IN,19800
273,bo phloi,14.3236,99.5161,35.39000000000004,40,84,4.57,TH,25200
274,vadso,70.0744,29.7487,7.490000000000009,93,75,7.2,NO,7200
275,eraan,9.0629,117.7016,32.400000000000034,59,100,1.78,PH,28800
276,al hilaliyya,14.9398,33.234,35.57000000000005,8,30,3.48,SD,7200
277,as sulayyil,20.4607,45.5779,31.140000000000043,16,0,4.87,SA,10800
278,owen sound,44.5672,-80.9435,13.830000000000041,76,43,0.89,CA,-14400
279,saldanha,-33.0117,17.9442,11.03000000000003,72,19,13.97,ZA,7200
280,traverse city,44.7631,-85.6206,14.04000000000002,76,0,0.0,US,-14400
281,kitimat,54.0524,-128.6534,15.210000000000036,66,100,1.91,CA,-25200
282,garhi khairo,28.0606,67.9803,43.629999999999995,5,0,1.25,PK,18000
283,atafu village,-8.5421,-172.5159,28.590000000000032,78,49,5.3,TK,46800
284,hithadhoo,-0.6,73.0833,28.57000000000005,75,100,7.25,MV,18000
285,east end,34.5507,-92.341,21.49000000000001,88,98,2.64,US,-18000
286,jiangyou,31.7667,104.7167,27.960000000000036,27,44,2.64,CN,28800
287,carutapera,-1.195,-46.02,24.470000000000027,92,34,1.66,BR,-10800
288,balikpapan,-1.2675,116.8289,31.55000000000001,70,20,1.54,ID,28800
289,kingsland,30.8,-81.6898,23.870000000000005,94,100,1.45,US,-14400
290,aasiaat,68.7098,-52.8699,-4.399999999999977,94,100,3.3,GL,-7200
291,rio grande,-32.035,-52.0986,11.490000000000009,74,38,1.26,BR,-10800
292,constantia,44.1833,28.65,11.5,60,77,6.72,RO,10800
293,nieuw amsterdam,5.8833,-55.0833,24.450000000000045,92,96,2.68,SR,-10800
294,malanje,-9.5402,16.341,15.29000000000002,71,1,1.72,AO,3600
295,colon,9.3592,-79.9014,27.420000000000016,82,30,3.96,PA,-18000
296,prainha,-1.8,-53.48,22.960000000000036,98,100,0.81,BR,-10800
297,sterlibashevo,53.4376,55.2578,7.720000000000027,95,100,7.55,RU,18000
298,businga,3.3333,20.8833,24.30000000000001,85,49,1.22,CD,3600
299,tanushimarumachi-toyoki,33.35,130.6833,27.730000000000018,8,100,2.09,JP,32400
300,khandyga,62.6667,135.6,5.7900000000000205,57,100,3.05,RU,32400
301,chesma,53.8111,60.6533,11.400000000000034,50,100,3.64,RU,18000
302,krasnogorskoye,52.2953,86.1979,12.020000000000039,66,100,4.29,RU,25200
303,pechora,65.1472,57.2244,1.3500000000000227,99,100,5.69,RU,10800
304,thinadhoo,0.5333,72.9333,27.930000000000007,81,98,6.54,MV,18000
305,mandapam,9.2833,79.1167,31.32000000000005,71,100,8.13,IN,19800
306,kani keli,-12.9536,45.1033,27.590000000000032,71,41,2.27,YT,10800
307,meadow lake,34.8014,-106.5436,17.710000000000036,49,6,4.18,US,-21600
308,ma'an,26.9775,110.7211,22.950000000000045,64,64,2.1,CN,28800
309,ciudad lazaro cardenas,17.9583,-102.2,26.700000000000045,76,97,2.33,MX,-21600
310,almeirim,-1.5233,-52.5817,23.180000000000007,97,100,1.12,BR,-10800
311,geraldton,-28.7667,114.6,25.230000000000018,44,39,6.69,AU,28800
312,benjamin constant,-4.3831,-70.0311,23.07000000000005,100,98,0.24,BR,-18000
313,idabel,33.8957,-94.8263,23.970000000000027,94,100,5.14,US,-18000
314,broome,42.2506,-75.833,15.360000000000014,79,26,1.23,US,-14400
315,flying fish cove,-10.4217,105.6791,27.82000000000005,89,100,5.66,CX,25200
316,jayapura,-2.5333,140.7,34.660000000000025,74,96,2.85,ID,32400
317,volda,62.1476,6.0741,10.370000000000005,93,75,0.0,NO,7200
318,am timan,11.0297,20.2827,29.03000000000003,53,90,2.84,TD,3600
319,lorengau,-2.0226,147.2712,28.350000000000023,81,100,2.39,PG,36000
320,bukama,-9.2,25.85,21.170000000000016,65,4,0.99,CD,7200
321,tulum,20.2167,-87.4667,25.960000000000036,91,14,3.17,MX,-18000
322,gutierrez zamora,20.45,-97.0833,25.640000000000043,97,21,2.26,MX,-21600
323,cadale,2.7603,46.3222,28.810000000000002,72,50,8.1,SO,10800
324,illizi,26.4833,8.4667,21.890000000000043,19,96,3.75,DZ,3600
325,ulladulla,-35.35,150.4667,19.870000000000005,65,25,2.85,AU,36000
326,kosh-agach,50.0,88.6667,15.5,30,96,9.42,RU,25200
327,alamosa,37.4695,-105.87,6.990000000000009,70,0,2.57,US,-21600
328,east ballina,-28.8667,153.5833,20.560000000000002,80,9,3.48,AU,36000
329,antalaha,-14.9003,50.2788,27.220000000000027,64,3,2.7,MG,10800
330,bequimao,-2.4489,-44.7825,22.57000000000005,98,71,0.78,BR,-10800
331,vorkuta,67.5,64.0,-3.409999999999968,81,20,3.19,RU,10800
332,pak phanang,8.3511,100.202,35.58000000000004,58,59,3.93,TH,25200
333,coronel dorrego,-38.7187,-61.2873,12.340000000000032,46,99,7.51,AR,-10800
334,siuri,23.9167,87.5333,34.120000000000005,12,100,2.31,IN,19800
335,haiku-pauwela,20.9219,-156.3051,23.360000000000014,64,20,6.17,US,-36000
336,port blair,11.6667,92.75,30.04000000000002,73,96,9.2,IN,19800
337,colonia,50.9333,6.95,13.79000000000002,89,75,2.57,DE,7200
338,tezu,27.9167,96.1667,35.18000000000001,22,60,2.12,IN,19800
339,remire-montjoly,4.9167,-52.2667,24.02000000000004,94,100,1.03,GF,-10800
340,lucheng,31.2336,117.2806,25.060000000000002,40,4,1.54,CN,28800
341,conceicao da barra,-18.5933,-39.7322,22.75,90,100,2.08,BR,-10800
342,puerto baquerizo moreno,-0.9,-89.6,25.930000000000007,88,50,4.68,EC,-21600
343,toamasina,-18.1667,49.3833,23.0,94,75,3.09,MG,10800
344,hasaki,35.7333,140.8333,19.560000000000002,49,77,3.64,JP,32400
345,lospalos,-8.5186,127.0025,25.25,61,83,5.5,TL,32400
346,santiago de cuba,20.0247,-75.8219,26.060000000000002,73,20,1.54,CU,-14400
347,kpandu,6.9954,0.2931,25.730000000000018,89,18,2.01,GH,0
348,chany,55.3121,76.7647,9.879999999999995,38,16,4.3,RU,25200
349,quila,24.4228,-107.22,20.920000000000016,54,37,1.15,MX,-25200
350,carros,43.7894,7.184,13.730000000000018,71,40,5.14,FR,7200
351,grants,35.1473,-107.8514,10.129999999999995,25,75,2.57,US,-21600
352,nemuro,43.3236,145.575,6.8799999999999955,77,25,5.43,JP,32400
353,sinop,41.7711,34.8709,8.240000000000009,79,95,9.68,TR,10800
354,bavly,54.393,53.2602,12.470000000000027,55,100,7.37,RU,10800
355,vila franca do campo,37.7167,-25.4333,16.230000000000018,89,99,1.27,PT,0
356,punta del este,-34.9667,-54.95,11.060000000000002,93,20,2.57,UY,-10800
357,mora,11.0461,14.1401,31.24000000000001,22,77,0.48,CM,3600
358,camabatela,-8.1881,15.375,16.670000000000016,63,25,1.5,AO,3600
359,padang,-0.9492,100.3543,31.03000000000003,67,17,3.12,ID,25200
360,susz,53.7174,19.3365,12.060000000000002,58,3,1.34,PL,7200
361,khabarovsk,48.4808,135.0928,21.890000000000043,18,0,5.0,RU,36000
362,dapchi,12.4904,11.4944,28.420000000000016,9,94,1.92,NG,3600
363,inga,-7.2808,-35.6044,25.25,95,29,1.03,BR,-10800
364,nicoya,10.1483,-85.452,27.220000000000027,77,25,1.1,CR,-21600
365,centerport,40.8854,-73.3762,20.370000000000005,71,0,0.45,US,-14400
366,okha,53.5739,142.9478,7.830000000000041,62,9,1.66,RU,39600
367,saint-louis,16.3333,-15.0,21.80000000000001,49,42,5.98,SN,0
368,atamyrat,37.8357,65.2106,30.07000000000005,25,24,4.72,TM,18000
369,arraial do cabo,-22.9661,-42.0278,18.060000000000002,96,79,1.91,BR,-10800
370,natal,-5.795,-35.2094,25.120000000000005,88,40,2.06,BR,-10800
371,kolonia town,6.964,158.206,31.0,79,75,2.06,FM,39600
372,rosamond,34.8641,-118.1634,18.400000000000034,57,0,6.17,US,-25200
373,mar del plata,-38.0023,-57.5575,10.53000000000003,86,20,1.54,AR,-10800
374,levuka,50.1834,-105.4011,10.900000000000034,88,100,4.93,CA,-21600
375,awjilah,29.1081,21.2869,22.810000000000002,36,0,0.26,LY,7200
376,perry,37.2506,-83.1999,21.400000000000034,96,75,1.56,US,-14400
377,goure,13.9835,10.2704,27.24000000000001,16,84,2.3,NE,3600
378,waddan,29.1614,16.139,20.33000000000004,50,0,3.14,LY,7200
379,vilyuysk,63.7553,121.6247,8.010000000000048,36,1,2.12,RU,32400
380,vilyuchinsk,52.9306,158.4028,6.150000000000034,86,100,1.81,RU,43200
381,kampene,-3.6,26.6667,21.99000000000001,95,100,0.46,CD,7200
382,kiruna,67.8557,20.2251,6.510000000000048,70,20,2.57,SE,7200
383,buala,-8.145,159.5921,28.879999999999995,78,67,4.75,SB,39600
384,turkmenbasy,40.0222,52.9552,17.430000000000007,67,40,6.17,TM,18000
385,acaponeta,22.4964,-105.3594,20.129999999999995,62,12,0.41,MX,-25200
386,kissidougou,9.1848,-10.0999,21.230000000000018,95,24,1.67,GN,0
387,sarupathar,26.1984,93.8094,29.120000000000005,24,87,3.42,IN,19800
388,junin de los andes,-39.9504,-71.0694,9.610000000000014,88,100,3.83,AR,-10800
389,kokoda,-8.8785,147.7407,27.400000000000034,91,90,1.29,PG,36000
390,kralendijk,12.15,-68.2667,25.99000000000001,83,20,6.17,BQ,-14400
391,panshi,42.9422,126.0561,20.629999999999995,36,100,7.28,CN,28800
392,rocha,-34.4833,-54.3333,10.060000000000002,76,34,0.48,UY,-10800
393,hirara,24.8,125.2833,26.920000000000016,57,40,4.12,JP,32400
394,lucas,41.6501,-83.6666,16.980000000000018,64,0,2.06,US,-14400
395,sandnessjoen,66.0217,12.6316,8.29000000000002,90,75,4.12,NO,7200
396,quang ngai,15.1167,108.8,29.58000000000004,71,100,1.44,VN,25200
397,uglich,57.5275,38.3317,14.810000000000002,55,100,2.73,RU,10800
398,popondetta,-8.7537,148.2534,29.450000000000045,69,93,2.66,PG,36000
399,rapar,23.5667,70.6333,36.80000000000001,20,0,5.59,IN,19800
400,kingston,17.997,-76.7936,26.53000000000003,86,20,1.54,JM,-18000
401,san patricio,28.017,-97.5169,27.129999999999995,96,11,5.17,US,-18000
402,miyaly,48.8844,53.7836,15.900000000000034,44,52,7.62,KZ,18000
403,cockburn town,21.4612,-71.1419,26.670000000000016,77,50,6.07,TC,-14400
404,puerto leguizamo,-0.1934,-74.7819,21.650000000000034,98,71,0.2,CO,-18000
405,adiake,5.2863,-3.304,24.53000000000003,97,98,0.92,CI,0
406,valparaiso,-33.0393,-71.6273,18.80000000000001,56,0,1.54,CL,-14400
407,sinan,34.8262,126.1086,21.060000000000002,86,100,3.98,KR,32400
408,zalegoshch',52.9008,36.8869,12.490000000000009,71,82,4.33,RU,10800
409,tebingtinggi,3.3285,99.1625,33.910000000000025,49,34,2.26,ID,25200
410,turpan,42.9333,89.1667,34.54000000000002,6,84,1.7,CN,28800
411,palikir - national government center,6.9248,158.1611,30.410000000000025,79,75,2.06,FM,39600
412,livadiya,42.8692,132.6764,13.110000000000014,65,98,3.25,RU,36000
413,siwa oasis,29.2041,25.5195,20.920000000000016,53,0,3.65,EG,10800
414,deulgaon raja,20.0167,76.0333,38.97000000000003,10,6,6.83,IN,19800
415,gao,16.6362,1.637,28.410000000000025,36,55,5.84,ML,0
416,saint-francois,46.4154,3.9054,9.689999999999998,93,100,2.57,FR,7200
417,gadzhiyevo,69.2551,33.3362,3.410000000000025,99,100,5.2,RU,10800
418,san jose de feliciano,-30.3845,-58.7517,8.740000000000009,80,5,1.66,AR,-10800
419,ghadamis,30.1337,9.5007,24.470000000000027,19,0,8.5,LY,7200
420,sao lourenco do sul,-31.3653,-51.9783,11.25,83,11,2.46,BR,-10800
421,hermanus,-34.4187,19.2345,9.890000000000043,84,78,5.56,ZA,7200
422,udachny,66.4167,112.4,6.360000000000014,41,100,7.32,RU,32400
423,worland,44.0169,-107.9554,12.04000000000002,77,100,3.6,US,-21600
424,manggar,-2.8833,108.2667,30.510000000000048,70,95,3.95,ID,25200
425,choibalsan,48.0667,114.5,15.870000000000005,13,51,7.32,MN,28800
426,cidreira,-30.1811,-50.2056,12.689999999999998,93,85,1.52,BR,-10800
427,jianshui,23.6363,102.8264,24.160000000000025,55,100,3.97,CN,28800
428,pinillos,8.9193,-74.4677,24.53000000000003,97,94,0.72,CO,-18000
429,jackson,42.4165,-122.8345,17.930000000000007,64,0,2.06,US,-25200
430,angra do heroismo,38.65,-27.2167,16.730000000000018,89,75,0.45,PT,0
431,tateyama,34.9833,139.8667,17.79000000000002,60,90,3.85,JP,32400
432,mitu,1.1983,-70.1733,20.840000000000032,99,55,0.59,CO,-18000
433,yulinshi,38.2906,109.7494,24.210000000000036,16,5,9.68,CN,28800
434,buseresere,-3.0236,31.8747,20.170000000000016,85,81,1.5,TZ,10800
435,upata,8.0086,-62.3989,23.439999999999998,77,98,0.9,VE,-14400
436,tyukalinsk,55.8732,72.1967,9.450000000000045,36,1,3.85,RU,21600
437,luwuk,-0.9516,122.7875,28.600000000000023,77,98,0.33,ID,28800
438,kangdong-up,39.1425,126.0961,23.420000000000016,30,99,3.3,KP,32400
439,valenca do piaui,-6.4075,-41.7456,21.220000000000027,78,21,0.51,BR,-10800
440,richards bay,-28.783,32.0377,21.03000000000003,80,71,3.15,ZA,7200
441,komsomolets,53.7453,62.0708,13.75,45,100,4.51,KZ,21600
442,huaihua,27.5494,109.9592,24.360000000000014,61,65,0.77,CN,28800
443,rufino,-34.2683,-62.7126,10.870000000000005,74,41,3.76,AR,-10800
444,lajere,11.9797,11.4443,27.640000000000043,51,72,2.25,NG,3600
445,okhotsk,59.3833,143.3,3.0,79,99,3.38,RU,36000
446,arno,60.1167,18.6333,7.660000000000025,50,65,3.98,SE,7200
447,qarazhal,48.0078,70.7903,27.629999999999995,23,45,3.1,KZ,21600
448,fortuna,40.5982,-124.1573,12.03000000000003,95,100,0.0,US,-25200
449,quepos,9.4236,-84.1652,27.230000000000018,84,77,1.3,CR,-21600
450,arar,30.9753,41.0381,26.010000000000048,15,0,5.66,SA,10800
451,onguday,50.75,86.15,15.590000000000032,66,100,3.58,RU,25200
452,sorong,-0.8833,131.25,27.730000000000018,80,97,4.29,ID,32400
453,salinas,36.6777,-121.6555,13.450000000000045,82,0,3.6,US,-25200
454,pinarbasi,38.7229,36.3931,16.78000000000003,49,100,3.67,TR,10800
455,nogliki,51.8333,143.1667,8.629999999999995,59,8,1.93,RU,39600
456,lazaro cardenas,17.9583,-102.2,26.890000000000043,77,98,2.57,MX,-21600
457,wulingyuan,29.3494,110.5441,25.77000000000004,50,62,1.12,CN,28800
458,sur,22.5667,59.5289,35.09000000000003,38,0,2.0,OM,14400
459,revda,56.801,59.9303,12.170000000000016,36,71,3.93,RU,18000
460,verkhnevilyuysk,63.4453,120.3167,9.140000000000043,31,0,2.49,RU,32400
461,tidjikja,18.5564,-11.4271,28.470000000000027,16,36,2.73,MR,0
462,long beach,33.767,-118.1892,16.140000000000043,84,0,2.57,US,-25200
463,anisoc,1.8658,10.7689,21.470000000000027,98,100,0.2,GQ,3600
464,san pedro pochutla,15.7333,-96.4667,28.170000000000016,73,72,3.16,MX,-21600
465,toktogul,41.8708,72.9402,22.680000000000007,35,72,1.62,KG,21600
466,champerico,14.3,-91.9167,26.430000000000007,81,61,2.36,GT,-21600
467,chandbali,20.7833,86.7667,34.620000000000005,47,90,4.44,IN,19800
468,goroka,-6.0834,145.3873,21.470000000000027,91,100,1.45,PG,36000
469,aldinga beach,-35.2793,138.4604,18.58000000000004,72,59,5.57,AU,34200
470,caransebes,45.4167,22.2167,9.640000000000043,78,100,3.52,RO,10800
471,esil,51.9556,66.4042,18.310000000000002,31,80,6.21,KZ,21600
472,bontang,0.1333,117.5,30.590000000000032,67,50,3.24,ID,28800
473,pukchil-lodongjagu,40.2019,125.7483,21.010000000000048,32,96,4.45,KP,32400
474,nelson bay,-32.7167,152.15,21.170000000000016,74,1,4.02,AU,36000
475,paracuru,-3.41,-39.0306,26.730000000000018,93,62,2.26,BR,-10800
476,melekeok village,7.4957,134.6367,30.310000000000002,70,75,4.12,PW,32400
477,can gio,10.4167,106.9667,34.120000000000005,50,81,4.64,VN,25200
478,ribeira brava,32.65,-17.0667,19.510000000000048,70,27,4.9,PT,3600
479,pikalevo,59.5183,34.1664,13.180000000000007,44,38,2.84,RU,10800
480,lib,8.3122,167.3766,27.430000000000007,83,86,6.83,MH,43200
481,pangody,65.85,74.4859,-8.669999999999959,81,83,2.95,RU,18000
482,trinidad,-14.8333,-64.9,22.49000000000001,80,75,1.92,BO,-14400
483,bubaque,11.2833,-15.8333,26.210000000000036,71,100,6.17,GW,0
484,gislaved,57.3044,13.5408,13.110000000000014,44,14,2.52,SE,7200
485,massakory,12.996,15.7293,31.150000000000034,30,81,1.81,TD,3600
486,kasur,31.1156,74.4467,37.06,5,54,1.13,PK,18000
487,chebba,35.2372,11.115,19.420000000000016,71,45,6.67,TN,3600
488,marica,-22.9194,-42.8186,21.950000000000045,86,72,3.07,BR,-10800
489,bumba,2.1833,22.4667,21.99000000000001,97,89,1.5,CD,3600
490,inirida,3.8653,-67.9239,22.30000000000001,97,80,0.84,CO,-18000
491,bardai,11.65,7.2333,25.610000000000014,63,54,3.52,NG,3600
492,taoudenni,22.6783,-3.9836,30.910000000000025,11,91,3.21,ML,0
493,bandar abbas,27.1865,56.2808,32.99000000000001,40,35,4.12,IR,12600
494,urumqi,43.801,87.6005,28.53000000000003,10,0,2.0,CN,28800
495,el sauzal de rodriguez,31.9,-116.6833,15.230000000000018,77,3,1.11,MX,-25200
496,nizhnesortymskiy,62.4397,71.7603,-1.3700000000000045,64,44,2.21,RU,18000
497,vila do maio,15.1333,-23.2167,22.439999999999998,86,22,6.87,CV,-3600
498,lata,40.1629,-8.3327,11.07000000000005,77,1,2.0,PT,3600
499,nabire,-3.3667,135.4833,28.379999999999995,73,100,3.46,ID,32400
500,tosontsengel,48.7567,98.2839,16.410000000000025,27,97,8.25,MN,25200
501,barda,40.3744,47.1267,15.600000000000023,62,98,7.46,AZ,14400
502,yuzhno-kurilsk,44.0306,145.8556,7.470000000000027,67,20,1.1,RU,36000
503,coronel suarez,-37.4547,-61.9334,6.840000000000032,67,53,3.42,AR,-10800
504,tongliao,43.6125,122.2653,19.480000000000018,38,95,7.11,CN,28800
505,el granada,37.5027,-122.4694,13.370000000000005,84,100,5.66,US,-25200
506,mejit,10.2753,170.8646,27.30000000000001,81,86,7.26,MH,43200
507,nagqu,31.5,92.0,2.080000000000041,24,100,4.01,CN,28800
508,archangelos,36.2149,28.1149,17.950000000000045,74,100,6.37,GR,10800
509,jiquilisco,13.3167,-88.5833,25.689999999999998,85,3,1.34,SV,-21600
510,sault ste. marie,46.5168,-84.3333,14.310000000000002,89,0,1.54,CA,-14400
511,port isabel,26.0734,-97.2086,28.02000000000004,90,100,6.69,US,-18000
512,nishinoomote,30.7333,131.0,23.310000000000002,60,40,5.66,JP,32400
513,birzebbuga,35.8258,14.5269,16.200000000000045,82,96,5.66,MT,7200
514,namtsy,62.7161,129.6658,6.220000000000027,30,100,3.24,RU,32400
515,tsiombe,-25.3,45.4833,26.33000000000004,56,41,2.21,MG,10800
516,andalgala,-27.5819,-66.3165,13.850000000000023,70,4,0.52,AR,-10800
517,saudarkrokur,65.7461,-19.6394,8.54000000000002,81,100,8.55,IS,0
518,tongouson,5.0214,120.1328,29.450000000000045,71,38,1.88,PH,28800
519,jambi city,-1.6,103.6167,34.64000000000004,48,31,1.28,ID,25200
520,colares,38.7992,-9.4469,14.310000000000002,76,0,7.15,PT,3600
521,rio claro,-22.4114,-47.5614,13.340000000000032,96,17,1.43,BR,-10800
522,wanning,18.8003,110.3967,26.310000000000002,91,97,5.16,CN,28800
523,ulsteinvik,62.3432,5.8487,10.5,96,100,1.13,NO,7200
524,gokwe,-18.2048,28.9349,18.120000000000005,47,28,1.31,ZW,7200
525,mumford,5.2618,-0.759,25.140000000000043,96,85,0.5,GH,0
526,chimoio,-19.1164,33.4833,17.920000000000016,88,20,1.41,MZ,7200
527,merizo village,13.2658,144.6691,32.31,81,32,2.69,GU,36000
528,ponta delgada,37.7333,-25.6667,16.400000000000034,88,75,1.54,PT,0
529,hanceville,34.0607,-86.7675,20.920000000000016,97,100,2.14,US,-18000
530,kupang,-10.1667,123.5833,30.32000000000005,58,20,8.23,ID,28800
531,kayangel,8.0823,134.7173,29.120000000000005,71,25,0.75,PW,32400
532,greenville,35.6127,-77.3663,17.02000000000004,88,0,1.54,US,-14400
533,el bolson,-41.9667,-71.5167,10.810000000000002,95,82,1.96,AR,-10800
534,shahrud,36.4182,54.9763,22.25,32,36,2.91,IR,12600
535,bethanie,-26.4833,17.15,13.32000000000005,57,100,1.91,NA,7200
536,eforie sud,44.0229,28.6494,12.670000000000016,54,81,5.99,RO,10800
537,katsuura,35.1333,140.3,18.0,58,94,2.84,JP,32400
538,hafar al-batin,28.4328,45.9708,31.32000000000005,27,40,8.23,SA,10800
539,barbezieux-saint-hilaire,45.4726,-0.1522,8.150000000000034,90,10,1.5,FR,7200
540,picos,-7.0769,-41.4669,23.430000000000007,66,78,0.85,BR,-10800
541,basi,26.8333,76.0333,36.19,7,0,4.63,IN,19800
542,yuanping,38.7153,112.7575,26.230000000000018,15,49,10.4,CN,28800
543,bena,11.2844,5.9347,25.04000000000002,72,76,2.16,NG,3600
544,gassol,8.5333,10.4667,28.02000000000004,66,93,2.15,NG,3600
545,egilsstadir,65.2653,-14.3948,7.9500000000000455,81,75,6.17,IS,0
546,boden,65.8252,21.6886,12.0,67,24,2.57,SE,7200
547,hirado,33.3597,129.5531,18.28000000000003,78,100,6.59,JP,32400
548,dadhar,29.4753,67.6514,41.56,6,0,2.03,PK,18000
549,marka,1.7159,44.7717,28.970000000000027,70,52,6.92,SO,10800
550,thanh hoa,19.8,105.7667,22.870000000000005,85,100,3.7,VN,25200
551,portstewart,55.1813,-6.714,10.740000000000009,92,0,0.82,GB,3600
552,solnechnyy,50.7214,136.6319,21.370000000000005,22,7,1.05,RU,36000
553,copala,16.65,-98.9833,26.670000000000016,75,50,1.52,MX,-21600
554,leava,-14.3,-178.1667,28.450000000000045,74,19,7.9,WF,43200
555,cedar park,30.5052,-97.8203,25.310000000000002,86,100,6.26,US,-18000
556,elliot lake,46.3834,-82.6331,12.490000000000009,95,31,1.75,CA,-14400
557,tobruk,32.0836,23.9764,18.03000000000003,78,0,6.57,LY,7200
558,taunggyi,20.7833,97.0333,23.5,57,91,1.4,MM,23400
559,fecamp,49.7579,0.3746,8.840000000000032,89,42,3.41,FR,7200
560,kittila,67.6647,24.8936,9.080000000000041,61,0,3.09,FI,10800
561,kyzyl,51.7,94.45,16.170000000000016,52,100,5.81,RU,25200
562,antigonish,45.6169,-61.9986,6.57000000000005,86,67,2.81,CA,-10800
563,kuala tungkal,-0.8167,103.4667,30.629999999999995,74,61,1.28,ID,25200
564,truckee,39.328,-120.1833,12.760000000000048,76,0,1.54,US,-25200
565,fort st. john,56.2499,-120.8529,15.939999999999998,44,75,4.12,CA,-25200
566,salvador,13.8333,-88.9167,25.220000000000027,91,25,0.78,SV,-21600
567,caleta de carquin,-11.0925,-77.6267,21.129999999999995,85,100,3.04,PE,-18000
568,puri,19.8,85.85,33.29000000000002,61,100,5.08,IN,19800
569,happy valley-goose bay,53.3168,-60.3315,0.17000000000001592,59,20,1.54,CA,-10800
570,vilhena,-12.7406,-60.1458,20.29000000000002,81,100,1.51,BR,-14400
